{"companies":[
{
     "address" : "Avd. Teniente Montesinos, 10 Edif. Torre Godoy . 1º-C ",
        "city" : "Espinardo",
     "country" : "España",
         "key" : "praxem-recursos-humanos-sa",
    "latitude" : "38.009834",
        "logo" : "http://ats.jobsket.com/site/logo/80",
   "longitude" : "-1.154225",
        "name" : "Praxem Consultores",
    "postcode" : "30100",
      "region" : "Murcia"
}, 
{
     "address" : "Amadeu Vives, 20-22",
        "city" : "Molins de Rei",
     "country" : "España",
         "key" : "nova-agora-sl",
    "latitude" : "41.4698496",
        "logo" : "http://ats.jobsket.com/site/logo/34",
   "longitude" : "2.0318616",
        "name" : "Interempresas - Nova Àgora, S.L.",
    "postcode" : "08750"
}, 
{
     "address" : "C. Saavedra Meneses Nº107 2ºI",
        "city" : "Betanzos",
     "country" : "España",
         "key" : "jobsket-sl",
    "latitude" : "43.2696251",
        "logo" : "http://ats.jobsket.com/site/logo/2",
   "longitude" : "-8.2267665",
        "name" : "Jobsket S.L.",
    "postcode" : "15300",
      "region" : "Coruña (a)"
}, 
{
     "address" : "Pau Claris 162, 4º 1ª",
        "city" : "Barcelona",
     "country" : "España",
         "key" : "packspeed",
    "latitude" : "41.3949358",
        "logo" : "http://ats.jobsket.com/site/logo/57",
   "longitude" : "2.1645389",
        "name" : "PackSpeed",
    "postcode" : "08037",
      "region" : "Barcelona"
}, 
{
     "address" : "Pza. San Lorenzo, 2",
        "city" : "Ainsa",
     "country" : "España",
         "key" : "different-travel-sl",
    "latitude" : "42.3741261",
        "logo" : "http://ats.jobsket.com/site/logo/69",
   "longitude" : "0.0933686",
        "name" : "Centraldereservas.com",
    "postcode" : "22330",
      "region" : "Huesca"
}, 
{
     "address" : "Baltasar Gracian 21, 3 dcha",
        "city" : "Zaragoza",
     "country" : "España",
         "key" : "debugmodeon-sl",
    "latitude" : "41.646347",
        "logo" : "http://ats.jobsket.com/site/logo/39",
   "longitude" : "-0.8949293",
        "name" : "DEBUGMODEON",
    "postcode" : "50005"
}, 
{
     "address" : "Altor Hornos de Vizcaya 33, Edificio Cedemi, módulo I-13",
        "city" : "Barakaldo",
     "country" : "España",
         "key" : "blackslot-sl",
    "latitude" : "43.2927896",
        "logo" : "http://ats.jobsket.com/site/logo/33",
   "longitude" : "-2.9950584",
        "name" : "Blackslot",
    "postcode" : "48902"
}, 
{
     "address" : "Pedro Asúa, 47-1º.",
        "city" : "Vitoria-Gasteiz",
     "country" : "España",
         "key" : "veiss-comunicacion-&-tecnologia",
    "latitude" : "42.8472533",
        "logo" : "http://ats.jobsket.com/site/logo/50",
   "longitude" : "-2.6906773",
        "name" : "Veiss Comunicación",
    "postcode" : "01008",
      "region" : "Álava"
}, 
{
     "address" : "Avenida de Europa nº26. Edificio Atica 5. 3ª Planta. 28224. Pozuelo de Alarcón. Madrid",
        "city" : "Pozuelo de Alarcón",
     "country" : "España",
         "key" : "paradigma-tecnologico-sl",
    "latitude" : "40.4552155",
        "logo" : "http://ats.jobsket.com/site/logo/43",
   "longitude" : "-3.8095676",
        "name" : "Paradigma Tecnológico",
    "postcode" : "28224"
}, 
{
     "address" : "Avd. Fuenlabrada 77, 2ª Planta.",
        "city" : "Leganés",
     "country" : "España",
         "key" : "imaginaworks-software-factory-slu",
    "latitude" : "40.3308383",
        "logo" : "http://ats.jobsket.com/site/logo/74",
   "longitude" : "-3.7600156",
        "name" : "ImaginaWorks",
    "postcode" : "28912",
      "region" : "Madrid"
}, 
{
     "address" : "Gambrinus, 57",
        "city" : "A Coruña",
     "country" : "España",
         "key" : "externa-servicios-generales-de-empresa-sl",
    "latitude" : "43.3535583",
        "logo" : "http://ats.jobsket.com/site/logo/76",
   "longitude" : "-8.428705799999999",
        "name" : "Grupo Externa",
    "postcode" : "15008",
      "region" : "Coruña (a)"
}, 
{
     "address" : "Pseo Mikeletegui 56",
        "city" : "San Sebastián",
     "country" : "España",
         "key" : "breaking-molds-",
    "latitude" : "43.2929421",
        "logo" : "http://ats.jobsket.com/site/logo/22",
   "longitude" : "-1.9849409",
        "name" : "Trourist",
    "postcode" : "20009"
}, 
{
     "address" : "Mariano Escobedo 498 4 piso Col Nueva Anzures",
        "city" : "Distrito Federal",
     "country" : "México",
         "key" : "talento-&-tecnologia",
    "latitude" : "19.4326577",
        "logo" : "http://ats.jobsket.com/site/logo/93",
   "longitude" : "-99.17744620000001",
        "name" : "Talento & Tecnología",
    "postcode" : "11590",
      "region" : "Mexico"
}, 
{
     "address" : "Vía de los Poblados, nº 9, edificio B, 5ª planta",
        "city" : "Madrid",
     "country" : "España",
         "key" : "randstad-espana-sl",
    "latitude" : "40.4729146",
        "logo" : "http://ats.jobsket.com/site/logo/110",
   "longitude" : "-3.6547195",
        "name" : "Randstad Search & Selection",
    "postcode" : "28033",
      "region" : "Madrid"
}, 
{
     "address" : "POLÍGONO DE POCOMACO, PARCELA I NAVE 19",
        "city" : "A CORUÑA",
     "country" : "España",
         "key" : "tecnocom-sa",
    "latitude" : "43.3301029",
        "logo" : "http://ats.jobsket.com/site/logo/37",
   "longitude" : "-8.433502000000001",
        "name" : "TECNOCOM, S.A.",
    "postcode" : "15190"
}, 
{
     "address" : "Edificio Azpiegitura Módulo 6-E Carretera de Sangroniz 6",
        "city" : "Sondika",
     "country" : "España",
         "key" : "todoentradas-sl",
    "latitude" : "43.2871618",
        "logo" : "http://ats.jobsket.com/site/logo/58",
   "longitude" : "-2.9325785",
        "name" : "Grupo Evandti",
    "postcode" : "48150",
      "region" : "Vizcaya"
}, 
{
     "address" : "Avenida Somosierra 12",
        "city" : "San Sebastian de los Reyes",
     "country" : "España",
         "key" : "t-reto",
    "latitude" : "40.5526061",
        "logo" : "http://ats.jobsket.com/site/logo/66",
   "longitude" : "-3.6176969",
        "name" : "T-RETO",
    "postcode" : "28703",
      "region" : "Madrid"
}, 
{
     "address" : "Lagasca 106, 3º Dcha.",
        "city" : "Madrid",
     "country" : "España",
         "key" : "amaleon-servicios-sl",
    "latitude" : "40.4363505",
        "logo" : "http://ats.jobsket.com/site/logo/112",
   "longitude" : "-3.685144",
        "name" : "Amaleon Partners",
    "postcode" : "28006",
      "region" : "Madrid"
}, 
{
     "address" : "Rúa de Sempre en Galiza 5, 1º C",
        "city" : "Santiago de Compostela",
     "country" : "España",
         "key" : "elaboro-ingenieria-del-software-sl",
    "latitude" : "42.869334",
        "logo" : "http://ats.jobsket.com/site/logo/95",
   "longitude" : "-8.563106100000001",
        "name" : "eLABORO",
    "postcode" : "15706",
      "region" : "Coruña"
}, 
{
     "address" : "130 Aztec, Aztec West",
        "city" : "Bristol",
     "country" : "Reino Unido",
         "key" : "global-recruitment-consulting-ltd",
    "latitude" : "51.5557587",
        "logo" : "http://ats.jobsket.com/site/logo/81",
   "longitude" : "-2.5654251",
        "name" : "Global Retail Recruitment",
    "postcode" : "BS32",
      "region" : "Bristol"
}, 
{
     "address" : "c/ Pilar de Zaragoza, 29",
        "city" : "Madrid",
     "country" : "España",
         "key" : "avanzza-scoop",
    "latitude" : "40.4335195",
        "logo" : "http://ats.jobsket.com/site/logo/87",
   "longitude" : "-3.6694147",
        "name" : "Avanzza",
    "postcode" : "28028",
      "region" : "Madrid"
}, 
{
     "address" : "Minerva, 7 (Pol. Ind. Carretera de la Isla)",
        "city" : "Dos Hermanas",
     "country" : "España",
         "key" : "original-zone-of-market-sl",
    "latitude" : "37.2774735",
        "logo" : "http://ats.jobsket.com/site/logo/53",
   "longitude" : "-5.9364443",
        "name" : "Orizom",
    "postcode" : "41703",
      "region" : "Sevilla"
}, 
{
     "address" : "Calle Tuset 19 Atico 6ª",
        "city" : "Barcelona",
     "country" : "España",
         "key" : "mp-consultors",
    "latitude" : "41.3999835",
        "logo" : "http://ats.jobsket.com/site/logo/35",
   "longitude" : "2.1487078",
        "name" : "MP CONSULTORS",
    "postcode" : "08006"
}, 
{
     "address" : "Carretera do Freixo, 17 - 1ª",
        "city" : "Vigo",
     "country" : "España",
         "key" : "optare-solutions-sl",
    "latitude" : "42.1835563",
        "logo" : "http://ats.jobsket.com/site/logo/113",
   "longitude" : "-8.7412534",
        "name" : "Optare Solutions",
    "postcode" : "36214",
      "region" : "Madrid"
}, 
{
     "address" : "C/ Juan Flórez, núm. 12, 1º D",
        "city" : "A Coruña",
     "country" : "España",
         "key" : "vettera-training-sa",
    "latitude" : "43.3662976",
        "logo" : "http://ats.jobsket.com/site/logo/115",
   "longitude" : "-8.4085725",
        "name" : "Training Channel",
    "postcode" : "15004",
      "region" : "Coruña"
}, 
{
     "address" : "Avenida Joaquin Planells 106 bajo 15008 A Coruña",
        "city" : "A CORUÑA",
     "country" : "España",
         "key" : "commcenter-sl",
    "latitude" : "43.3471826",
        "logo" : "http://ats.jobsket.com/site/logo/26",
   "longitude" : "-8.417881",
        "name" : "COMMCENTER",
    "postcode" : "15008"
}, 
{
     "address" : "C/ Bari, 57",
        "city" : "Zaragoza",
     "country" : "España",
         "key" : "customedia",
    "latitude" : "41.6514869",
        "logo" : "http://ats.jobsket.com/site/logo/44",
   "longitude" : "-0.9842565",
        "name" : "Customedia",
    "postcode" : "50018"
}, 
{
     "address" : "Avgda Països Catalans 28, Local B (espai BASE)",
        "city" : "Tarragona",
     "country" : "España",
         "key" : "tau-consulting-scp",
    "latitude" : "41.1433306",
        "logo" : "http://ats.jobsket.com/site/logo/36",
   "longitude" : "1.2602228",
        "name" : "Tau Consulting",
    "postcode" : "43007"
}, 
{
     "address" : "Paseo de la Habana 9-11",
        "city" : "Madrid",
     "country" : "España",
         "key" : "360-executive-search-sl",
    "latitude" : "40.4494521",
        "logo" : "http://ats.jobsket.com/site/logo/103",
   "longitude" : "-3.6891338",
        "name" : "360 Executive Search",
    "postcode" : "28036 ",
      "region" : "Madrid"
}, 
{
     "address" : "Plaça Catalunya, 14",
        "city" : "Girona",
     "country" : "España",
         "key" : "ekm-group-human-capital-sl",
    "latitude" : "41.9813612",
        "logo" : "http://ats.jobsket.com/site/logo/90",
   "longitude" : "2.8238329",
        "name" : "Marlex",
    "postcode" : "17004",
      "region" : "Gerona"
}, 
{
     "address" : "Avd. de la Foia nº23, puerta 2, Pol. Ind. Rey Juan Carlos I",
        "city" : "Almussafes",
     "country" : "España",
         "key" : "proyectos-industriales-sueca-sl",
    "latitude" : "39.2835817",
        "logo" : "http://ats.jobsket.com/site/logo/67",
   "longitude" : "-0.4078058",
        "name" : "It8 Mechanical Design",
    "postcode" : "46440",
      "region" : "Valencia"
}, 
{
     "address" : "Paseo de la Castellana 28, 3ª planta",
        "city" : "Madrid",
     "country" : "España",
         "key" : "page-personnel-seleccion-sa",
    "latitude" : "40.4166909",
        "logo" : "http://ats.jobsket.com/site/logo/107",
   "longitude" : "-3.7003454",
        "name" : "Page Personnel Selección",
    "postcode" : "28080",
      "region" : "Madrid"
}, 
{
     "address" : "Avda. Punto Mobi 4",
        "city" : "Alcalá de Henares",
     "country" : "España",
         "key" : "anova",
    "latitude" : "40.5105476",
        "logo" : "http://ats.jobsket.com/site/logo/51",
   "longitude" : "-3.3338547",
        "name" : "Anova",
    "postcode" : "28805",
      "region" : "Madrid"
}, 
{
     "address" : "CL ARZOBISPO LAGO Nº 25 BAJO IZQUIERDA",
        "city" : "VILAGARCIA DE AROUSA",
     "country" : "España",
         "key" : "auden-consultores-sll",
    "latitude" : "42.5916284",
        "logo" : "http://ats.jobsket.com/site/logo/64",
   "longitude" : "-8.7646388",
        "name" : "AUDEN",
    "postcode" : "36600",
      "region" : "Pontevedra"
}, 
{
     "address" : "Luis Pita, 1",
        "city" : "A Coruña",
     "country" : "España",
         "key" : "enxendra-technologies",
    "latitude" : "43.3315833",
        "logo" : "http://ats.jobsket.com/site/logo/73",
   "longitude" : "-8.3869843",
        "name" : "Enxendra",
    "postcode" : "15009",
      "region" : "Coruña (a)"
}, 
{
     "address" : "General Ramírez de Madrid 8",
        "city" : "Madrid",
     "country" : "España",
         "key" : "babel-sistemas-de-informacion-sl",
    "latitude" : "40.4542975",
        "logo" : "http://ats.jobsket.com/site/logo/98",
   "longitude" : "-3.6979479",
        "name" : "BABEL Sistemas de Información",
    "postcode" : "28020",
      "region" : "Madrid"
}, 
{
     "address" : "Raimundo Fernandez Villaverde 28",
        "city" : "Madrid",
     "country" : "España",
         "key" : "importante_empresa",
    "latitude" : "40.4465764",
        "logo" : "http://ats.jobsket.com/site/logo/45",
   "longitude" : "-3.6994449",
        "name" : "Importante Empresa TIC Internacional",
    "postcode" : "28003"
}, 
{
     "address" : "Complejo Europa Empresarial. C/Playa de Liencres 2, Edificio Londres, Oficina 7-1º",
        "city" : "Las Rozas, Madrid",
     "country" : "España",
         "key" : "ideup-desarrollos-tecnologicos-sl",
    "latitude" : "40.4932791",
        "logo" : "http://ats.jobsket.com/site/logo/42",
   "longitude" : "-3.875189",
        "name" : "ideup!",
    "postcode" : "28230"
}, 
{
     "address" : "Diagonal 453bis, 4",
        "city" : "Barcelona",
     "country" : "España",
         "key" : "abiquo",
    "latitude" : "41.3899238",
        "logo" : "http://ats.jobsket.com/site/logo/20",
   "longitude" : "2.1511635",
        "name" : "abiquo",
    "postcode" : "08036",
      "region" : "Barcelona"
}, 
{
     "address" : "Pallars 85, 1. 2.",
        "city" : "barcelona",
     "country" : "España",
         "key" : "atipus-sl",
    "latitude" : "41.3955086",
        "logo" : "http://ats.jobsket.com/site/logo/78",
   "longitude" : "2.189941",
        "name" : "Atipus",
    "postcode" : "08018",
      "region" : "Barcelona"
}, 
{
     "address" : "Avenida Independencia ",
        "city" : "Zaragoza",
     "country" : "España",
         "key" : "makoondo-marketing",
    "latitude" : "41.6517818",
        "logo" : "http://ats.jobsket.com/site/logo/29",
   "longitude" : "-0.8811251",
        "name" : "Makoondo",
    "postcode" : "50004"
}, 
{
     "address" : "Calle Muntaner nº 328 Principal 1º",
        "city" : "Barcelona",
     "country" : "España",
         "key" : "humanus-consulting-sa",
    "latitude" : "41.397617",
        "logo" : "http://ats.jobsket.com/site/logo/109",
   "longitude" : "2.1413415",
        "name" : "Humanus Consulting",
    "postcode" : "08021",
      "region" : "Barcelona"
}, 
{
     "address" : "Anabel Segura, 11 Centro Albatros Edificio C",
        "city" : "Alcobendas",
     "country" : "España",
         "key" : "jazz-telecom-sa",
    "latitude" : "40.5614212",
        "logo" : "http://ats.jobsket.com/site/logo/119",
   "longitude" : "-3.6673942",
        "name" : "Jazztel",
    "postcode" : "28100",
      "region" : "Madrid"
}, 
{
     "address" : "Calle Marqués de Riscal, 11",
        "city" : "Madrid",
     "country" : "España",
         "key" : "antevenio-sa",
    "latitude" : "40.4306287",
        "logo" : "http://ats.jobsket.com/site/logo/11",
   "longitude" : "-3.6904394",
        "name" : "Antevenio S.A.",
    "postcode" : "28010",
      "region" : "Madrid"
}, 
{
     "address" : "Pollensa 4, Edificio Atenea",
        "city" : "Las Rozas",
     "country" : "España",
         "key" : "ceromat-sl",
    "latitude" : "40.5436288",
        "logo" : "http://ats.jobsket.com/site/logo/54",
   "longitude" : "-3.9011747",
        "name" : "Cermomat",
    "postcode" : "28290",
      "region" : "Madrid"
}, 
{
     "address" : "Rossello 214 Esc A 1º1º",
        "city" : "Barcelona",
     "country" : "España",
         "key" : "gameloft-iberica-sau",
    "latitude" : "41.3947475",
        "logo" : "http://ats.jobsket.com/site/logo/61",
   "longitude" : "2.1609876",
        "name" : "Gameloft",
    "postcode" : "08008",
      "region" : "Barcelona"
}, 
{
     "address" : "Ayala 11, 1º",
        "city" : "Madrid",
     "country" : "España",
         "key" : "omnia-xxi-sl",
    "latitude" : "40.4279609",
        "logo" : "http://ats.jobsket.com/site/logo/46",
   "longitude" : "-3.6870237",
        "name" : "OMNIA XXI RECURSOS HUMANOS",
    "postcode" : "28001",
      "region" : "Madrid"
}, 
{
     "address" : "Calle Menéndez Pidal, 7 Portal 1 1º A",
        "city" : "Bodilla del Monte",
     "country" : "España",
         "key" : "graciela-cardinale",
    "latitude" : "0",
        "logo" : "http://ats.jobsket.com/site/logo/72",
   "longitude" : "0",
        "name" : "CARDI TI",
    "postcode" : "28660",
      "region" : "Madrid"
}, 
{
     "address" : "Avinguda de la Torre Blanca, 57 ",
        "city" : "Sant Cugat del Vallès",
     "country" : "España",
         "key" : "amboto-digital-projects-sl",
    "latitude" : "41.4761765",
        "logo" : "http://ats.jobsket.com/site/logo/91",
   "longitude" : "2.0896764",
        "name" : "Buscorestaurantes.com",
    "postcode" : "08173",
      "region" : "Barcelona"
}, 
{
     "address" : "Lleida",
        "city" : "Lleida",
     "country" : "España",
         "key" : "mispruebas",
    "latitude" : "41.5891557",
        "logo" : "http://ats.jobsket.com/site/logo/117",
   "longitude" : "0.6867939",
        "name" : "mispruebas",
    "postcode" : "25001",
      "region" : "Lérida"
}, 
{
     "address" : "DIRECCION: Polígono Industrial de Mutilva Baja, C/E Nº5 1ºC",
        "city" : "Mutilva Baja",
     "country" : "España",
         "key" : "biko2-2006-sl",
    "latitude" : "42.7892754",
        "logo" : "http://ats.jobsket.com/site/logo/48",
   "longitude" : "-1.6177072",
        "name" : "Biko",
    "postcode" : "31192",
      "region" : "Navarra"
}, 
{
     "address" : "Polig. Ind. El Sosal - C/ Cobalto nº 33",
        "city" : "Binéfar",
     "country" : "España",
         "key" : "esmoca-sa",
    "latitude" : "41.8447969",
        "logo" : "http://ats.jobsket.com/site/logo/30",
   "longitude" : "0.2948797",
        "name" : "Esmoca",
    "postcode" : "22500"
}, 
{
     "address" : "C/ Compostela, 8 4º Centro ",
        "city" : "A Coruña",
     "country" : "España",
         "key" : "applica-asociados-sl",
    "latitude" : "42.8833332",
        "logo" : "http://ats.jobsket.com/site/logo/106",
   "longitude" : "-8.5404424",
        "name" : "Applica Asociados",
    "postcode" : "15004",
      "region" : "Coruña"
}, 
{
     "address" : "Pº Constitución 6, 2º B, ",
        "city" : "Zaragoza",
     "country" : "España",
         "key" : "thinkingpeople-sl",
    "latitude" : "41.6474057",
        "logo" : "http://ats.jobsket.com/site/logo/24",
   "longitude" : "-0.8841592",
        "name" : "THINKINGPEOPLE",
    "postcode" : "50008"
}, 
{
     "address" : "Avenida de Fuenlabrada, 77. 2ª planta.",
        "city" : "Leganés",
     "country" : "España",
         "key" : "salenda",
    "latitude" : "40.3308383",
        "logo" : "http://ats.jobsket.com/site/logo/21",
   "longitude" : "-3.7600156",
        "name" : "Salenda",
    "postcode" : "28912",
      "region" : "Madrid"
}, 
{
     "address" : "Ronda Universitat, 31 5º 3",
        "city" : "Barcelona",
     "country" : "España",
         "key" : "esni-consulting-sl",
    "latitude" : "41.3869889",
        "logo" : "http://ats.jobsket.com/site/logo/89",
   "longitude" : "2.1673859",
        "name" : "Esni Consulting",
    "postcode" : "08007",
      "region" : "Barcelona"
}, 
{
     "address" : "Avda. César Augusto, 33",
        "city" : "Zaragoza",
     "country" : "España",
         "key" : "dkv-seguros-y-reaseguros-sae",
    "latitude" : "41.6537851",
        "logo" : "http://ats.jobsket.com/site/logo/102",
   "longitude" : "-0.8843675",
        "name" : "DKV Seguros",
    "postcode" : "50004",
      "region" : "Zaragoza"
}, 
{
     "address" : "Lopez de Hoyos 327, 2",
        "city" : "Madrid",
     "country" : "España",
         "key" : "amplia-soluciones-sl",
    "latitude" : "40.4644238",
        "logo" : "http://ats.jobsket.com/site/logo/77",
   "longitude" : "-3.6566626",
        "name" : "Amplía Soluciones",
    "postcode" : "28043",
      "region" : "Madrid"
}, 
{
     "address" : "Real 85",
        "city" : "A Coruña",
     "country" : "España",
         "key" : "contenidos-informativos-personalizados-sl",
    "latitude" : "43.3688132",
        "logo" : "http://ats.jobsket.com/site/logo/60",
   "longitude" : "-8.4019259",
        "name" : "[cinfo]",
    "postcode" : "15003",
      "region" : "Coruña (a)"
}, 
{
     "address" : "plaza de las cortes, 2 5ª planta",
        "city" : "madrid",
     "country" : "España",
         "key" : "idealista-libertad-y-control-sa",
    "latitude" : "40.4156747",
        "logo" : "http://ats.jobsket.com/site/logo/41",
   "longitude" : "-3.6952896",
        "name" : "idealista.com",
    "postcode" : "28014"
}, 
{
     "address" : "Pasaje Bellas Vistas, 45",
        "city" : "Madrid",
     "country" : "España",
         "key" : "aubergin-tecnologies-sl",
    "latitude" : "40.4553322",
        "logo" : "http://ats.jobsket.com/site/logo/40",
   "longitude" : "-3.7086277",
        "name" : "Aubergin",
    "postcode" : "28039"
}, 
{
     "address" : "c/ GRAN VIA 44, 2º",
        "city" : "VIGO",
     "country" : "España",
         "key" : "arach-seleccion-sl",
    "latitude" : "42.2314315",
        "logo" : "http://ats.jobsket.com/site/logo/49",
   "longitude" : "-8.7185652",
        "name" : "Arach Selección",
    "postcode" : "36203",
      "region" : "Pontevedra"
}, 
{
     "address" : "Calle Garrotxa, 6/8",
        "city" : "El Prat de Lobregat",
     "country" : "España",
         "key" : "iss-imedia-system-",
    "latitude" : "41.3182092",
        "logo" : "http://ats.jobsket.com/site/logo/59",
   "longitude" : "2.0768576",
        "name" : "Iss iMedia ",
    "postcode" : "08820",
      "region" : "Barcelona"
}, 
{
     "address" : "Plaza Castilla 3, piso 16",
        "city" : "Madrid",
     "country" : "España",
         "key" : "anyhelp-international",
    "latitude" : "40.4661075",
        "logo" : "http://ats.jobsket.com/site/logo/79",
   "longitude" : "-3.69",
        "name" : "AnyHelp International",
    "postcode" : "28046",
      "region" : "Álava"
}, 
{
     "address" : "C/ Caleruega nº 35 (Edificio Kap)",
        "city" : "Madrid",
     "country" : "España",
         "key" : "ithcap",
    "latitude" : "40.4729146",
        "logo" : "http://ats.jobsket.com/site/logo/70",
   "longitude" : "-3.6547195",
        "name" : "PSICOTEC",
    "postcode" : "28033",
      "region" : "Madrid"
}, 
{
     "address" : "C/ Eiximenis,20, 5è 2a",
        "city" : "Girona",
     "country" : "España",
         "key" : "perfil-consultoria-de-rrhh-sl",
    "latitude" : "41.9848832",
        "logo" : "http://ats.jobsket.com/site/logo/100",
   "longitude" : "2.8215485",
        "name" : "Perfil RRHH",
    "postcode" : "17001",
      "region" : "Gerona"
}, 
{
     "address" : "Avenida de Manoeras 38, oficinas D401",
        "city" : "Madrid",
     "country" : "España",
         "key" : "birka-corporacion-tecnologica",
    "latitude" : "40.5007915",
        "logo" : "http://ats.jobsket.com/site/logo/68",
   "longitude" : "-3.6572542",
        "name" : "Birka",
    "postcode" : "28050",
      "region" : "Madrid"
}, 
{
     "address" : "C/Teixugueiras, 10 entrep Of.2",
        "city" : "Vigo",
     "country" : "España",
         "key" : "ega-recursos-humanos-sl",
    "latitude" : "42.210966",
        "logo" : "http://ats.jobsket.com/site/logo/23",
   "longitude" : "-8.7646388",
        "name" : "EGA Consultores",
    "postcode" : "36212"
}, 
{
     "address" : "C/As Teixugueiras, 10 entlo Of2",
        "city" : "Vigo",
     "country" : "España",
         "key" : "ega-formacion-y-desarrollo-sl",
    "latitude" : "42.210966",
        "logo" : "http://ats.jobsket.com/site/logo/75",
   "longitude" : "-8.7646388",
        "name" : "Yo si innovo",
    "postcode" : "36212",
      "region" : "Pontevedra"
}, 
{
     "address" : "Carrer de la Llacuna 162",
        "city" : "Barcelona",
     "country" : "España",
         "key" : "recomendaciones-personalizadas-sl",
    "latitude" : "41.4063451",
        "logo" : "http://ats.jobsket.com/site/logo/47",
   "longitude" : "2.1920365",
        "name" : "BuscoUnViaje.com",
    "postcode" : "08018",
      "region" : "Barcelona"
}, 
{
     "address" : "c/Real 85",
        "city" : "A Coruña",
     "country" : "España",
         "key" : "r-cable-y-telecomunicaciones-galicia",
    "latitude" : "43.3688132",
        "logo" : "http://ats.jobsket.com/site/logo/31",
   "longitude" : "-8.4019259",
        "name" : "R",
    "postcode" : "15003"
}]}